{"meta":{"code":200},"notifications":[{"type":"notificationTray","item":{"unreadCount":53}}],"response":{"venues":[{"id":"430d0a00f964a5203e271fe3","name":"Brooklyn Bridge Park","contact":{"phone":"+12128033822","formattedPhone":"+1 212-803-3822","twitter":"nycparks","facebook":"104475634308","facebookUsername":"BartowPell","facebookName":"Bartow-Pell Mansion Museum"},"location":{"address":"Main St","crossStreet":"Plymouth St","lat":40.70227697066692,"lng":-73.9965033531189,"distance":389,"postalCode":"11201","cc":"US","city":"Бруклін","state":"NY","country":"США","formattedAddress":["Main St (Plymouth St)","Бруклін, NY 11201","США"]},"categories":[{"id":"4bf58dd8d48988d163941735","name":"Park","pluralName":"Parks","shortName":"Park","icon":{"prefix":"https:\/\/ss3.4sqi.net\/img\/categories_v2\/parks_outdoors\/park_","suffix":".png"},"primary":true}],"verified":true,"stats":{"checkinsCount":34795,"usersCount":21274,"tipCount":198},"url":"http:\/\/nyc.gov\/parks","specials":{"count":0,"items":[]},"hereNow":{"count":12,"summary":"12 people are here","groups":[{"type":"others","name":"Other people here","count":12,"items":[]}]},"referralId":"v-1437182875"},{"id":"51eabef6498e10cf3aea7942","name":"Brooklyn Bridge Park - Pier 2","contact":{},"location":{"address":"Furman St","crossStreet":"Brooklyn Bridge Park Greenway","lat":40.699511638395514,"lng":-73.99813359642076,"distance":166,"cc":"US","city":"Бруклін","state":"NY","country":"США","formattedAddress":["Furman St (Brooklyn Bridge Park Greenway)","Бруклін, NY","США"]},"categories":[{"id":"4bf58dd8d48988d163941735","name":"Park","pluralName":"Parks","shortName":"Park","icon":{"prefix":"https:\/\/ss3.4sqi.net\/img\/categories_v2\/parks_outdoors\/park_","suffix":".png"},"primary":true}],"verified":false,"stats":{"checkinsCount":2084,"usersCount":1594,"tipCount":12},"specials":{"count":0,"items":[]},"hereNow":{"count":3,"summary":"3 people are here","groups":[{"type":"others","name":"Other people here","count":3,"items":[]}]},"referralId":"v-1437182875"},{"id":"4ebac60a0cd6904066e4108f","name":"Brookyn Bridge Park Greenway","contact":{},"location":{"address":"Fulton Ferry Landing to Atlantic Ave.","lat":40.70025980212479,"lng":-73.99698615074158,"distance":255,"postalCode":"11201","cc":"US","city":"Бруклін","state":"NY","country":"США","formattedAddress":["Fulton Ferry Landing to Atlantic Ave.","Бруклін, NY 11201","США"]},"categories":[{"id":"4bf58dd8d48988d163941735","name":"Park","pluralName":"Parks","shortName":"Park","icon":{"prefix":"https:\/\/ss3.4sqi.net\/img\/categories_v2\/parks_outdoors\/park_","suffix":".png"},"primary":true}],"verified":false,"stats":{"checkinsCount":592,"usersCount":409,"tipCount":1},"specials":{"count":0,"items":[]},"hereNow":{"count":0,"summary":"Nobody here","groups":[]},"referralId":"v-1437182875"},{"id":"53ff2935498e161412b3e871","name":"Brooklyn Bridge Park - Pier 2 Yoga Court","contact":{},"location":{"lat":40.699657951708524,"lng":-73.99976911704667,"distance":42,"cc":"US","city":"Бруклін","state":"NY","country":"США","formattedAddress":["Бруклін, NY","США"]},"categories":[{"id":"4bf58dd8d48988d102941735","name":"Yoga Studio","pluralName":"Yoga Studios","shortName":"Yoga Studio","icon":{"prefix":"https:\/\/ss3.4sqi.net\/img\/categories_v2\/shops\/gym_yogastudio_","suffix":".png"},"primary":true}],"verified":false,"stats":{"checkinsCount":8,"usersCount":5,"tipCount":0},"specials":{"count":0,"items":[]},"hereNow":{"count":0,"summary":"Nobody here","groups":[]},"referralId":"v-1437182875"},{"id":"4a43bcb7f964a520bba61fe3","name":"Brooklyn Bridge","contact":{"twitter":"nyc_dot","facebook":"166279802886","facebookUsername":"NYCDOT","facebookName":"NYC DOT"},"location":{"address":"Brooklyn Bridge","lat":40.705953265881305,"lng":-73.99656772613525,"distance":723,"postalCode":"10038","cc":"US","city":"Нью-Йорк","state":"NY","country":"США","formattedAddress":["Brooklyn Bridge","Нью-Йорк, NY 10038","США"]},"categories":[{"id":"4bf58dd8d48988d1df941735","name":"Bridge","pluralName":"Bridges","shortName":"Bridge","icon":{"prefix":"https:\/\/ss3.4sqi.net\/img\/categories_v2\/parks_outdoors\/bridge_","suffix":".png"},"primary":true}],"verified":true,"stats":{"checkinsCount":136671,"usersCount":77304,"tipCount":579},"url":"http:\/\/www.nyc.gov\/dot","specials":{"count":0,"items":[]},"hereNow":{"count":8,"summary":"8 people are here","groups":[{"type":"others","name":"Other people here","count":8,"items":[]}]},"storeId":"","referralId":"v-1437182875"},{"id":"42377700f964a52024201fe3","name":"Brooklyn Heights Promenade","contact":{},"location":{"address":"Columbia Heights","crossStreet":"btwn Remsen & Orange","lat":40.69829137715981,"lng":-73.99663209915161,"distance":342,"postalCode":"11201","cc":"US","city":"Бруклін","state":"NY","country":"США","formattedAddress":["Columbia Heights (btwn Remsen & Orange)","Бруклін, NY 11201","США"]},"categories":[{"id":"4bf58dd8d48988d163941735","name":"Park","pluralName":"Parks","shortName":"Park","icon":{"prefix":"https:\/\/ss3.4sqi.net\/img\/categories_v2\/parks_outdoors\/park_","suffix":".png"},"primary":true}],"verified":false,"stats":{"checkinsCount":20082,"usersCount":9750,"tipCount":149},"url":"http:\/\/nyharborparks.org\/visit\/brhe.html","specials":{"count":0,"items":[]},"hereNow":{"count":0,"summary":"Nobody here","groups":[]},"referralId":"v-1437182875"},{"id":"51fa84d22fc60e9c2e6f875b","name":"Fornino","contact":{"phone":"+17184221107","formattedPhone":"+1 718-422-1107","facebook":"215054715212404","facebookUsername":"ForninoBK","facebookName":"Fornino Pizza"},"location":{"address":"Pier 6","lat":40.69347581139949,"lng":-74.00027990341187,"distance":726,"postalCode":"11201","cc":"US","city":"Бруклін","state":"NY","country":"США","formattedAddress":["Pier 6","Бруклін, NY 11201","США"]},"categories":[{"id":"4bf58dd8d48988d1ca941735","name":"Pizza Place","pluralName":"Pizza Places","shortName":"Pizza","icon":{"prefix":"https:\/\/ss3.4sqi.net\/img\/categories_v2\/food\/pizza_","suffix":".png"},"primary":true}],"verified":true,"stats":{"checkinsCount":2556,"usersCount":1759,"tipCount":41},"url":"http:\/\/fornino.com","menu":{"type":"Menu","label":"Menu","anchor":"View Menu","url":"http:\/\/fornino.com\/menu.html","mobileUrl":"http:\/\/fornino.com\/menu.html","externalUrl":"http:\/\/fornino.com\/menu.html"},"specials":{"count":0,"items":[]},"hereNow":{"count":8,"summary":"8 people are here","groups":[{"type":"others","name":"Other people here","count":8,"items":[]}]},"storeId":"","referralId":"v-1437182875"},{"id":"5000a1eae4b086066e55ee58","name":"Come Out & Play After Dark","contact":{},"location":{"address":"Front Street","crossStreet":"Beekman","lat":40.707195,"lng":-74.003195,"distance":845,"postalCode":"10038","cc":"US","city":"Нью-Йорк","state":"NY","country":"США","formattedAddress":["Front Street (Beekman)","Нью-Йорк, NY 10038","США"]},"categories":[{"id":"4bf58dd8d48988d1e7941735","name":"Playground","pluralName":"Playgrounds","shortName":"Playground","icon":{"prefix":"https:\/\/ss3.4sqi.net\/img\/categories_v2\/parks_outdoors\/playground_","suffix":".png"},"primary":true}],"verified":false,"stats":{"checkinsCount":87,"usersCount":80,"tipCount":0},"specials":{"count":0,"items":[]},"hereNow":{"count":5,"summary":"5 people are here","groups":[{"type":"others","name":"Other people here","count":5,"items":[]}]},"referralId":"v-1437182875"},{"id":"4fedde93e4b0d57e70276de9","name":"MorrisTruck","contact":{},"location":{"lat":40.70014969723652,"lng":-73.99916655844069,"distance":72,"postalCode":"10280","cc":"US","city":"Нью-Йорк","state":"NY","country":"США","formattedAddress":["Нью-Йорк, NY 10280","США"]},"categories":[{"id":"4bf58dd8d48988d1cb941735","name":"Food Truck","pluralName":"Food Trucks","shortName":"Food Truck","icon":{"prefix":"https:\/\/ss3.4sqi.net\/img\/categories_v2\/food\/streetfood_","suffix":".png"},"primary":true}],"verified":false,"stats":{"checkinsCount":18,"usersCount":16,"tipCount":2},"specials":{"count":0,"items":[]},"hereNow":{"count":0,"summary":"Nobody here","groups":[]},"referralId":"v-1437182875"},{"id":"4f2c1bbae4b0ccfb1d99b510","name":"kk hair salon","contact":{},"location":{"lat":40.69956588745117,"lng":-74.00108337402344,"distance":103,"cc":"US","state":"Нью-Йорк","country":"США","formattedAddress":["Нью-Йорк","США"]},"categories":[{"id":"4bf58dd8d48988d110951735","name":"Salon \/ Barbershop","pluralName":"Salons \/ Barbershops","shortName":"Salon \/ Barbershop","icon":{"prefix":"https:\/\/ss3.4sqi.net\/img\/categories_v2\/shops\/salon_barber_","suffix":".png"},"primary":true}],"verified":false,"stats":{"checkinsCount":1,"usersCount":1,"tipCount":0},"specials":{"count":0,"items":[]},"hereNow":{"count":0,"summary":"Nobody here","groups":[]},"referralId":"v-1437182875"},{"id":"4cb92bdc7148f04d9336d5ab","name":"Livys apartment !","contact":{},"location":{"address":"95 Wall St","crossStreet":"Water st","lat":40.700249,"lng":-74.001442,"distance":124,"postalCode":"10005","cc":"US","city":"Нью-Йорк","state":"NY","country":"США","formattedAddress":["95 Wall St (Water st)","Нью-Йорк, NY 10005","США"]},"categories":[{"id":"4bf58dd8d48988d1a3941735","name":"College Residence Hall","pluralName":"College Residence Halls","shortName":"Residence Hall","icon":{"prefix":"https:\/\/ss3.4sqi.net\/img\/categories_v2\/education\/residencehall_","suffix":".png"},"primary":true}],"verified":false,"stats":{"checkinsCount":1,"usersCount":1,"tipCount":0},"specials":{"count":0,"items":[]},"hereNow":{"count":0,"summary":"Nobody here","groups":[]},"referralId":"v-1437182875"},{"id":"4d9788e5daec224b4642333e","name":"Dr Shur","contact":{},"location":{"address":"140 Elgar Pl","lat":40.698978,"lng":-74.00043,"distance":119,"postalCode":"10475","cc":"US","city":"Bronx","state":"NY","country":"США","formattedAddress":["140 Elgar Pl","Bronx, NY 10475","США"]},"categories":[],"verified":false,"stats":{"checkinsCount":1,"usersCount":1,"tipCount":0},"specials":{"count":0,"items":[]},"hereNow":{"count":0,"summary":"Nobody here","groups":[]},"referralId":"v-1437182875"},{"id":"5054eb43e4b04ed4f0dd1b30","name":"La cabana","contact":{},"location":{"lat":40.69875,"lng":-73.99953,"distance":144,"cc":"US","state":"Нью-Йорк","country":"США","formattedAddress":["Нью-Йорк","США"]},"categories":[{"id":"4bf58dd8d48988d154941735","name":"Cuban Restaurant","pluralName":"Cuban Restaurants","shortName":"Cuban","icon":{"prefix":"https:\/\/ss3.4sqi.net\/img\/categories_v2\/food\/cuban_","suffix":".png"},"primary":true}],"verified":false,"stats":{"checkinsCount":4,"usersCount":4,"tipCount":1},"specials":{"count":0,"items":[]},"hereNow":{"count":0,"summary":"Nobody here","groups":[]},"referralId":"v-1437182875"},{"id":"4dac4c974df01c19b1b0fc82","name":"Internal Medicine Associates","contact":{},"location":{"address":"530 1st Ave","crossStreet":"30th street","lat":40.698978,"lng":-74.00043,"distance":119,"postalCode":"10016","cc":"US","city":"Нью-Йорк","state":"NY","country":"США","formattedAddress":["530 1st Ave (30th street)","Нью-Йорк, NY 10016","США"]},"categories":[{"id":"4bf58dd8d48988d177941735","name":"Doctor's Office","pluralName":"Doctor's Offices","shortName":"Doctor's Office","icon":{"prefix":"https:\/\/ss3.4sqi.net\/img\/categories_v2\/building\/medical_doctorsoffice_","suffix":".png"},"primary":true}],"verified":false,"stats":{"checkinsCount":2,"usersCount":2,"tipCount":0},"specials":{"count":0,"items":[]},"hereNow":{"count":0,"summary":"Nobody here","groups":[]},"referralId":"v-1437182875"},{"id":"4d2cb2c677a2a1cd02c387b7","name":"QBE","contact":{},"location":{"address":"80 Pine St","crossStreet":"Water St","lat":40.698978,"lng":-74.00043,"distance":119,"postalCode":"10005","cc":"US","city":"Нью-Йорк","state":"NY","country":"США","formattedAddress":["80 Pine St (Water St)","Нью-Йорк, NY 10005","США"]},"categories":[],"verified":false,"stats":{"checkinsCount":1,"usersCount":1,"tipCount":0},"specials":{"count":0,"items":[]},"hereNow":{"count":0,"summary":"Nobody here","groups":[]},"referralId":"v-1437182875"},{"id":"4eb9edca00397fc4185d1f8e","name":"RADICSVILLE","contact":{},"location":{"address":"5555 Distant Water Drive","lat":40.7030577937025,"lng":-73.99779081344604,"distance":388,"postalCode":"11209","cc":"US","city":"Бруклін","state":"NY","country":"США","formattedAddress":["5555 Distant Water Drive","Бруклін, NY 11209","США"]},"categories":[{"id":"4bf58dd8d48988d1e5931735","name":"Music Venue","pluralName":"Music Venues","shortName":"Music Venue","icon":{"prefix":"https:\/\/ss3.4sqi.net\/img\/categories_v2\/arts_entertainment\/musicvenue_","suffix":".png"},"primary":true}],"verified":false,"stats":{"checkinsCount":4,"usersCount":3,"tipCount":0},"specials":{"count":0,"items":[]},"hereNow":{"count":0,"summary":"Nobody here","groups":[]},"referralId":"v-1437182875"},{"id":"4ae62580f964a52011a521e3","name":"Danish Seamen's Church","contact":{},"location":{"address":"102 Willow St","lat":40.698023159650134,"lng":-73.99568889745463,"distance":425,"postalCode":"11201","cc":"US","city":"Бруклін","state":"NY","country":"США","formattedAddress":["102 Willow St","Бруклін, NY 11201","США"]},"categories":[{"id":"4bf58dd8d48988d132941735","name":"Church","pluralName":"Churches","shortName":"Church","icon":{"prefix":"https:\/\/ss3.4sqi.net\/img\/categories_v2\/building\/religious_church_","suffix":".png"},"primary":true}],"verified":false,"stats":{"checkinsCount":107,"usersCount":72,"tipCount":0},"specials":{"count":0,"items":[]},"hereNow":{"count":0,"summary":"Nobody here","groups":[]},"referralId":"v-1437182875"},{"id":"4bee1772767dc9b64d07d4e9","name":"Eamons","contact":{},"location":{"lat":40.70219570850836,"lng":-73.99718097095484,"distance":341,"postalCode":"10036","cc":"US","city":"Нью-Йорк","state":"NY","country":"США","formattedAddress":["Нью-Йорк, NY 10036","США"]},"categories":[],"verified":false,"stats":{"checkinsCount":7,"usersCount":7,"tipCount":0},"specials":{"count":0,"items":[]},"hereNow":{"count":0,"summary":"Nobody here","groups":[]},"referralId":"v-1437182875"},{"id":"4ea0156630f854cd9c288a75","name":"99 Wall Street Coffee\/bagel Cart","contact":{},"location":{"lat":40.703174,"lng":-74.002968,"distance":433,"cc":"US","state":"Нью-Йорк","country":"США","formattedAddress":["Нью-Йорк","США"]},"categories":[{"id":"4bf58dd8d48988d1cb941735","name":"Food Truck","pluralName":"Food Trucks","shortName":"Food Truck","icon":{"prefix":"https:\/\/ss3.4sqi.net\/img\/categories_v2\/food\/streetfood_","suffix":".png"},"primary":true}],"verified":false,"stats":{"checkinsCount":41,"usersCount":12,"tipCount":0},"specials":{"count":0,"items":[]},"hereNow":{"count":0,"summary":"Nobody here","groups":[]},"referralId":"v-1437182875"},{"id":"4e2ee1ff483b93c2f2d97eb0","name":"BGC Partners","contact":{},"location":{"lat":40.70266296308047,"lng":-74.00172199466637,"distance":330,"cc":"US","state":"Нью-Йорк","country":"США","formattedAddress":["Нью-Йорк","США"]},"categories":[{"id":"4d4b7105d754a06375d81259","name":"Professional & Other Places","pluralName":"Professional & Other Places","shortName":"Professional","icon":{"prefix":"https:\/\/ss3.4sqi.net\/img\/categories_v2\/building\/default_","suffix":".png"},"primary":true}],"verified":false,"stats":{"checkinsCount":25,"usersCount":10,"tipCount":0},"specials":{"count":0,"items":[]},"hereNow":{"count":0,"summary":"Nobody here","groups":[]},"referralId":"v-1437182875"},{"id":"4c3a5ad83849c92880e0c2b1","name":"Blue Marble Ice Cream","contact":{"twitter":"bluemarblebk"},"location":{"address":"Brooklyn Bridge Park - Pier 1","lat":40.70136599888968,"lng":-73.99794101715088,"distance":230,"postalCode":"11201","cc":"US","city":"Бруклін","state":"NY","country":"США","formattedAddress":["Brooklyn Bridge Park - Pier 1","Бруклін, NY 11201","США"]},"categories":[{"id":"4bf58dd8d48988d1c9941735","name":"Ice Cream Shop","pluralName":"Ice Cream Shops","shortName":"Ice Cream","icon":{"prefix":"https:\/\/ss3.4sqi.net\/img\/categories_v2\/food\/icecream_","suffix":".png"},"primary":true}],"verified":true,"stats":{"checkinsCount":157,"usersCount":131,"tipCount":18},"url":"https:\/\/www.facebook.com\/pages\/Blue-Marble-Ice-Cream\/415075860304","specials":{"count":0,"items":[]},"hereNow":{"count":0,"summary":"Nobody here","groups":[]},"referralId":"v-1437182875"},{"id":"4ec2a71749014076e7fd61ec","name":"32b","contact":{},"location":{"address":"63 Water St, New York, NY 10041","lat":40.7042505,"lng":-74.0003203,"distance":473,"postalCode":"10041","cc":"US","city":"Нью-Йорк","state":"NY","country":"США","formattedAddress":["63 Water St, New York, NY 10041","Нью-Йорк, NY 10041","США"]},"categories":[{"id":"4bf58dd8d48988d130941735","name":"Building","pluralName":"Buildings","shortName":"Building","icon":{"prefix":"https:\/\/ss3.4sqi.net\/img\/categories_v2\/building\/default_","suffix":".png"},"primary":true}],"verified":false,"stats":{"checkinsCount":1,"usersCount":1,"tipCount":0},"specials":{"count":0,"items":[]},"hereNow":{"count":0,"summary":"Nobody here","groups":[]},"referralId":"v-1437182875"},{"id":"4c67633d8e9120a1d3ddda64","name":"Shroud Park","contact":{},"location":{"address":"Park Place","crossStreet":"Washington","lat":40.7015,"lng":-73.99776681,"distance":251,"postalCode":"11238","cc":"US","city":"Бруклін","state":"NY","country":"США","formattedAddress":["Park Place (Washington)","Бруклін, NY 11238","США"]},"categories":[{"id":"4bf58dd8d48988d163941735","name":"Park","pluralName":"Parks","shortName":"Park","icon":{"prefix":"https:\/\/ss3.4sqi.net\/img\/categories_v2\/parks_outdoors\/park_","suffix":".png"},"primary":true}],"verified":false,"stats":{"checkinsCount":11,"usersCount":10,"tipCount":1},"specials":{"count":0,"items":[]},"hereNow":{"count":0,"summary":"Nobody here","groups":[]},"referralId":"v-1437182875"},{"id":"50d1e13ee4b0399075b92bbb","name":"Karma Yogii","contact":{},"location":{"lat":40.69990921020508,"lng":-73.9961929321289,"distance":321,"postalCode":"11201","cc":"US","city":"Бруклін","state":"NY","country":"США","formattedAddress":["Бруклін, NY 11201","США"]},"categories":[{"id":"4bf58dd8d48988d102941735","name":"Yoga Studio","pluralName":"Yoga Studios","shortName":"Yoga Studio","icon":{"prefix":"https:\/\/ss3.4sqi.net\/img\/categories_v2\/shops\/gym_yogastudio_","suffix":".png"},"primary":true}],"verified":false,"stats":{"checkinsCount":1,"usersCount":1,"tipCount":0},"specials":{"count":0,"items":[]},"hereNow":{"count":0,"summary":"Nobody here","groups":[]},"referralId":"v-1437182875"},{"id":"5240956911d2ee152900b10d","name":"Truman Capote House","contact":{},"location":{"address":"70 Willow St","lat":40.698906,"lng":-73.99495,"distance":443,"postalCode":"11201","cc":"US","city":"Бруклін","state":"NY","country":"США","formattedAddress":["70 Willow St","Бруклін, NY 11201","США"]},"categories":[{"id":"4deefb944765f83613cdba6e","name":"Historic Site","pluralName":"Historic Sites","shortName":"Historic Site","icon":{"prefix":"https:\/\/ss3.4sqi.net\/img\/categories_v2\/arts_entertainment\/historicsite_","suffix":".png"},"primary":true}],"verified":false,"stats":{"checkinsCount":9,"usersCount":8,"tipCount":0},"specials":{"count":0,"items":[]},"hereNow":{"count":0,"summary":"Nobody here","groups":[]},"referralId":"v-1437182875"},{"id":"4eeb62d80aafdad4661ead70","name":"M.R. Beal & Company","contact":{},"location":{"address":"120 E 34th St","lat":40.70253034715183,"lng":-73.99759989719497,"distance":346,"postalCode":"10016","cc":"US","city":"Нью-Йорк","state":"NY","country":"США","formattedAddress":["120 E 34th St","Нью-Йорк, NY 10016","США"]},"categories":[],"verified":false,"stats":{"checkinsCount":1,"usersCount":1,"tipCount":0},"specials":{"count":0,"items":[]},"hereNow":{"count":0,"summary":"Nobody here","groups":[]},"referralId":"v-1437182875"},{"id":"524096e611d281cb3d63e667","name":"110 Columbia Heights Site","contact":{},"location":{"address":"124 Columbia Hts","crossStreet":"Orange Street","lat":40.69953198574533,"lng":-73.99576350140552,"distance":361,"postalCode":"11201","cc":"US","city":"Бруклін","state":"NY","country":"США","formattedAddress":["124 Columbia Hts (Orange Street)","Бруклін, NY 11201","США"]},"categories":[{"id":"4deefb944765f83613cdba6e","name":"Historic Site","pluralName":"Historic Sites","shortName":"Historic Site","icon":{"prefix":"https:\/\/ss3.4sqi.net\/img\/categories_v2\/arts_entertainment\/historicsite_","suffix":".png"},"primary":true}],"verified":false,"stats":{"checkinsCount":5,"usersCount":2,"tipCount":0},"specials":{"count":0,"items":[]},"hereNow":{"count":0,"summary":"Nobody here","groups":[]},"referralId":"v-1437182875"},{"id":"4fd91ce8e4b0a8dbd1eddc69","name":"SS Gawker","contact":{},"location":{"lat":40.69900610889219,"lng":-74.00171450760502,"distance":182,"cc":"US","state":"Нью-Йорк","country":"США","formattedAddress":["Нью-Йорк","США"]},"categories":[{"id":"4bf58dd8d48988d12d951735","name":"Boat or Ferry","pluralName":"Boats or Ferries","shortName":"Boat \/ Ferry","icon":{"prefix":"https:\/\/ss3.4sqi.net\/img\/categories_v2\/travel\/boat_","suffix":".png"},"primary":true}],"verified":false,"stats":{"checkinsCount":15,"usersCount":8,"tipCount":1},"specials":{"count":0,"items":[]},"hereNow":{"count":0,"summary":"Nobody here","groups":[]},"referralId":"v-1437182875"},{"id":"4b7c8bedf964a5202c9a2fe3","name":"160 Columbia Heights","contact":{},"location":{"address":"160 Columbia Hts","lat":40.69817619576914,"lng":-73.99641198067849,"distance":364,"postalCode":"11201","cc":"US","city":"Бруклін","state":"NY","country":"США","formattedAddress":["160 Columbia Hts","Бруклін, NY 11201","США"]},"categories":[{"id":"4d954b06a243a5684965b473","name":"Residential Building (Apartment \/ Condo)","pluralName":"Residential Buildings (Apartments \/ Condos)","shortName":"Residential","icon":{"prefix":"https:\/\/ss3.4sqi.net\/img\/categories_v2\/building\/apartment_","suffix":".png"},"primary":true}],"verified":false,"stats":{"checkinsCount":201,"usersCount":30,"tipCount":1},"specials":{"count":0,"items":[]},"hereNow":{"count":0,"summary":"Nobody here","groups":[]},"referralId":"v-1437182875"}],"confident":true}}